[{"name":"1.jpg","address":"Gulangyu Island","longitude":"118.0693817139","latitude":"24.4437115852"},
{"name":"2.jpg","address":"Xiamen University","longitude":"118.0979633331","latitude":"24.4368352948"},
{"name":"3.jpg","address":"Huandao Road","longitude":"118.1685590744","latitude":"24.4480481436"},
{"name":"4.jpg","address":"Bay Park","longitude":"118.0765056610","latitude":"24.4731659918"},
{"name":"5.jpg","address":"Haicang Bridge","longitude":"118.0655193329","latitude":"24.4944907438"},
{"name":"6.jpg","address":"Botanic Garden","longitude":"118.1043148041","latitude":"24.4472277251"},
{"name":"7.jpg","address":"Haicang Zoo","longitude":"118.0255222321","latitude":"24.4571505242"},
{"name":"8.jpg","address":"Tongan Studio City","longitude":"118.1643319130","latitude":"24.7427779082"},
{"name":"9.jpg","address":"Yundang Lake","longitude":"118.1001949310","latitude":"24.4774624779"},
{"name":"10.jpg","address":"Software Park","longitude":"118.1824636459","latitude":"24.4871095079"}]